{
  "nearby-points": [
     {
        "id":"417727375",
        "name":"29 SAADA CODE 01.9.61.690",
        "type":"immeuble",
        "eligibility":"raccordable",
        "latitude":33.56956,
        "longitude":-7.67274,
        "city":"CASABLANCA",
        "district":"MAZOLA",
        "street":"IBNOU SINA",
        "projectName":"",
        "apartemntsNumber":16,
        "clientsNumber":0,
        "address":"CASABLANCA, MAZOLA, IBNOU SINA, 29 SAADA CODE 01.9.61.690"
     },
     {
        "id":"417727234",
        "name":"28 SAADA CODE 01.9.61.689",
        "type":"immeuble",
        "eligibility":"raccordable",
        "latitude":33.56944,
        "longitude":-7.67304,
        "city":"CASABLANCA",
        "district":"MAZOLA",
        "street":"IBNOU SINA",
        "projectName":"",
        "apartemntsNumber":16,
        "clientsNumber":0,
        "address":"CASABLANCA, MAZOLA, IBNOU SINA, 28 SAADA CODE 01.9.61.689"
     },
     {
        "id":"418397659",
        "name":"31 SAADA CODE 01.9.61.447",
        "type":"immeuble",
        "eligibility":"raccordable",
        "latitude":33.5698,
        "longitude":-7.67222,
        "city":"CASABLANCA",
        "district":"MAZOLA",
        "street":"RUE 8",
        "projectName":"",
        "apartemntsNumber":9,
        "clientsNumber":0,
        "address":"CASABLANCA, MAZOLA, RUE 8, 31 SAADA CODE 01.9.61.447"
     },
     {
        "id":"417727509",
        "name":"14 SAADA CODE 01.9.61.441",
        "type":"immeuble",
        "eligibility":"raccordable",
        "latitude":33.56867,
        "longitude":-7.67217,
        "city":"CASABLANCA",
        "district":"MAZOLA",
        "street":"RUE 8",
        "projectName":"",
        "apartemntsNumber":17,
        "clientsNumber":0,
        "address":"CASABLANCA, MAZOLA, RUE 8, 14 SAADA CODE 01.9.61.441"
     },
     {
        "id":"417727489",
        "name":"15 SAADA CODE 01.9.61.442",
        "type":"immeuble",
        "eligibility":"raccordable",
        "latitude":33.56877,
        "longitude":-7.67192,
        "city":"CASABLANCA",
        "district":"MAZOLA",
        "street":"RUE 8",
        "projectName":"",
        "apartemntsNumber":16,
        "clientsNumber":0,
        "address":"CASABLANCA, MAZOLA, RUE 8, 15 SAADA CODE 01.9.61.442"
     },
     {
        "id":"417866294",
        "name":"13 SAADA CODE 01.9.61.603",
        "type":"immeuble",
        "eligibility":"raccordable",
        "latitude":33.56854,
        "longitude":-7.67248,
        "city":"CASABLANCA",
        "district":"MAZOLA",
        "street":"RUE 8",
        "projectName":"",
        "apartemntsNumber":17,
        "clientsNumber":0,
        "address":"CASABLANCA, MAZOLA, RUE 8, 13 SAADA CODE 01.9.61.603"
     }
  ],
  "check-elegibility": [],
  "search-address-api": [],
  "sri-by-distance": [
    {
      "id": "5079831",
      "lat": 33.52109,
      "lng": -7.64419,
      "prop_type": "building",
      "adr_type": "adressable",
      "adr": "CASABLANCA, CHAIMAE SOUFIANE, INCONNUE_RESIDENCE C32, C\u002730 SOUFIANE LOT CHAIMAA CODE 02.1.92.652",
      "quotient": "0\/20",
      "clientsNumber": 0
    },
    {
      "id": "5121961",
      "lat": 33.52091,
      "lng": -7.64423,
      "prop_type": "villa",
      "adr_type": "raccordable",
      "adr": "CASABLANCA, CHAIMAE SOUFIANE, INCONNUE_RESIDENCE C32, C\u002712 SOUFIANE LOT CHAIMAA CODE 02.1.92.649",
      "quotient": "0\/20",
      "clientsNumber": 0
    },
    {
      "id": "5121175",
      "lat": 33.52114,
      "lng": -7.64447,
      "prop_type": "building",
      "adr_type": "raccordable",
      "adr": "CASABLANCA, CHAIMAE SOUFIANE, INCONNUE_RESIDENCE C10, C29 SOUFIANE LOT CHAIMAA CODE 02.1.92.629",
      "quotient": "0\/20",
      "clientsNumber": 0
    },
    {
      "id": "5079688",
      "lat": 33.52105,
      "lng": -7.64389,
      "prop_type": "building",
      "adr_type": "adressable",
      "adr": "CASABLANCA, CHAIMAE SOUFIANE, INCONNUE_RESIDENCE C32, C3 SOUFIANE LOT CHAIMAA CODE 02.1.92.651",
      "quotient": "0\/20",
      "clientsNumber": 0
    },
    {
      "id": "5120900",
      "lat": 33.52096,
      "lng": -7.64451,
      "prop_type": "building",
      "adr_type": "adressable",
      "adr": "CASABLANCA, CHAIMAE SOUFIANE, INCONNUE_RESIDENCE C10, C11 SOUFIANE LOT CHAIMAA CODE 02.1.92.626",
      "quotient": "0\/20",
      "clientsNumber": 0
    },
    {
      "id": "5109586",
      "lat": 33.52143,
      "lng": -7.64397,
      "prop_type": "building",
      "adr_type": "adressable",
      "adr": "CASABLANCA, CHAIMAE SOUFIANE, ABDERRHMANE BEN MOUSSA, 130 CODE 02.1.92.385",
      "quotient": "0\/0",
      "clientsNumber": 0
    },
    {
      "id": "5121299",
      "lat": 33.52077,
      "lng": -7.64455,
      "prop_type": "building",
      "adr_type": "raccordable",
      "adr": "CASABLANCA, CHAIMAE SOUFIANE, INCONNUE_RESIDENCE C10, C\u002731 SOUFIANE LOT CHAIMAA CODE 02.1.92.630",
      "quotient": "0\/20",
      "clientsNumber": 0
    },
    {
      "id": "5109588",
      "lat": 33.52141,
      "lng": -7.64382,
      "prop_type": "building",
      "adr_type": "adressable",
      "adr": "CASABLANCA, CHAIMAE SOUFIANE, ABDERRHMANE BEN MOUSSA, 132 CODE 02.1.92.386",
      "quotient": "0\/0",
      "clientsNumber": 0
    }
  ],
  "apartments" :{
   "ftthSubscriberResults":{
      "totalClients":0,
      "totalBuilding":24,
      "clients":[
         {
            "clientsByBuilding":0,
            "fullAddress":{
               "city":"CASABLANCA",
               "district":"BELVEDERE",
               "street":"MAURICE RAVEL",
               "projectName":null,
               "propertyName":"24 CODE 01.5.31.467",
               "apartmentName":"ETG 5 APT 17"
            },
            "subscribed":false
         },
         {
            "clientsByBuilding":0,
            "fullAddress":{
               "city":"CASABLANCA",
               "district":"BELVEDERE",
               "street":"MAURICE RAVEL",
               "projectName":null,
               "propertyName":"24 CODE 01.5.31.467",
               "apartmentName":"ETG 5 APT 18"
            },
            "subscribed":false
         },
         {
            "clientsByBuilding":0,
            "fullAddress":{
               "city":"CASABLANCA",
               "district":"BELVEDERE",
               "street":"MAURICE RAVEL",
               "projectName":null,
               "propertyName":"24 CODE 01.5.31.467",
               "apartmentName":"ETG 3 APT 11"
            },
            "subscribed":false
         },
         {
            "clientsByBuilding":0,
            "fullAddress":{
               "city":"CASABLANCA",
               "district":"BELVEDERE",
               "street":"MAURICE RAVEL",
               "projectName":null,
               "propertyName":"24 CODE 01.5.31.467",
               "apartmentName":"ETG 2 APT 6"
            },
            "subscribed":false
         },
         {
            "clientsByBuilding":0,
            "fullAddress":{
               "city":"CASABLANCA",
               "district":"BELVEDERE",
               "street":"MAURICE RAVEL",
               "projectName":null,
               "propertyName":"24 CODE 01.5.31.467",
               "apartmentName":"ETG 2 APT 5"
            },
            "subscribed":false
         }
      ]
   },
   "result":[
      {
         "id":"4803852",
         "apartment":"ETG 1 APT 1"
      },
      {
         "id":"4803780",
         "apartment":"ETG 1 APT 2"
      },
      {
         "id":"4803785",
         "apartment":"ETG 3 APT 10"
      },
      {
         "id":"4803805",
         "apartment":"ETG 3 APT 11"
      }
   ]
}
}
